[
  {
    "Address": "",
    "Name": "NCRR",
    "Longitude": -83.37477185,
    "Latitude": 33.95143912, 
    "Building Code": "NCRR"
  },
  {
    "Address": "",
    "Name": "TBA",
    "Longitude": -83.37477185,
    "Latitude": 33.95143912, 
    "Building Code": "TBA"
  },
  {
    "Address": "106 Herty Dr",
    "Name": "Meigs Hall",
    "Longitude": -83.3754287,
    "Latitude": 33.95720729,
    "Building Code": "0024"
  },
  {
    "Address": "286 OCONEE ST",
    "Name": "Hodgson Oil Building",
    "Longitude": -83.37092125,
    "Latitude": 33.95720317,
    "Building Code": "0019"
  },
  {
    "Address": "200 S JACKSON ST",
    "Name": "Phi Kappa Hall",
    "Longitude": -83.37420571,
    "Latitude": 33.95713815,
    "Building Code": "0020"
  },
  {
    "Address": "105 N HERTY DR",
    "Name": "Demosthenian Hall",
    "Longitude": -83.37519617,
    "Latitude": 33.95688555,
    "Building Code": "0021"
  },
  {
    "Address": "109 N HERTY DR",
    "Name": "Chapel",
    "Longitude": -83.37520216,
    "Latitude": 33.95665922,
    "Building Code": "0022"
  },
  {
    "Address": "210 S JACKSON ST",
    "Name": "Terrell Hall",
    "Longitude": -83.37417688,
    "Latitude": 33.95677504,
    "Building Code": "0023"
  },
  {
    "Address": "106 N HERTY DR",
    "Name": "Meigs Hall",
    "Longitude": -83.37627927,
    "Latitude": 33.95656661,
    "Building Code": "0024"
  },
  {
    "Address": "108 N HERTY DR",
    "Name": "Moore Hall",
    "Longitude": -83.37580568,
    "Latitude": 33.95651324,
    "Building Code": "0025"
  },
  {
    "Address": "205 N HERTY DR",
    "Name": "New College",
    "Longitude": -83.37493607,
    "Latitude": 33.95616667,
    "Building Code": "0030"
  },
  {
    "Address": "202 N HERTY DR",
    "Name": "Candler Hall",
    "Longitude": -83.37614494,
    "Latitude": 33.95606601,
    "Building Code": "0031"
  },
  {
    "Address": "235 S JACKSON ST",
    "Name": "Bishop House",
    "Longitude": -83.37316974,
    "Latitude": 33.95586197,
    "Building Code": "0032"
  },
  {
    "Address": "279 WILLIAMS ST",
    "Name": "School of Social Work Building",
    "Longitude": -83.36929324,
    "Latitude": 33.95285899,
    "Building Code": "0033"
  },
  {
    "Address": "285 S JACKSON ST",
    "Name": "Jackson Street Building",
    "Longitude": -83.37279925,
    "Latitude": 33.95522775,
    "Building Code": "0040"
  },
  {
    "Address": "240 S JACKSON ST",
    "Name": "Waddel Hall",
    "Longitude": -83.37388569,
    "Latitude": 33.95540649,
    "Building Code": "0041"
  },
  {
    "Address": "290 S JACKSON ST",
    "Name": "Peabody Hall",
    "Longitude": -83.37354682,
    "Latitude": 33.95492364,
    "Building Code": "0042"
  },
  {
    "Address": "225 N HERTY DR",
    "Name": "Hirsch Hall",
    "Longitude": -83.37447163,
    "Latitude": 33.9546902,
    "Building Code": "0043"
  },
  {
    "Address": "115 BOCOCK ST",
    "Name": "Denmark Hall",
    "Longitude": -83.37561101,
    "Latitude": 33.95469885,
    "Building Code": "0044"
  },
  {
    "Address": "325 S HERTY DR",
    "Name": "Dean Rusk Hall",
    "Longitude": -83.37437242,
    "Latitude": 33.9540178,
    "Building Code": "0045"
  },
  {
    "Address": "302 S HERTY DR",
    "Name": "Caldwell Hall",
    "Longitude": -83.375299,
    "Latitude": 33.95489824,
    "Building Code": "0046"
  },
  {
    "Address": "355 S JACKSON ST",
    "Name": "Baldwin Hall",
    "Longitude": -83.37230889,
    "Latitude": 33.95370945,
    "Building Code": "0050"
  },
  {
    "Address": "250 BALDWIN ST",
    "Name": "LeConte Hall",
    "Longitude": -83.37342925,
    "Latitude": 33.95343253,
    "Building Code": "0053"
  },
  {
    "Address": "320 S JACKSON ST",
    "Name": "Main Library",
    "Longitude": -83.37378624,
    "Latitude": 33.95404106,
    "Building Code": "0054"
  },
  {
    "Address": "310 S HERTY DR",
    "Name": "Brooks Hall",
    "Longitude": -83.37526084,
    "Latitude": 33.9541909,
    "Building Code": "0055"
  },
  {
    "Address": "200 BALDWIN ST",
    "Name": "Park Hall",
    "Longitude": -83.37524289,
    "Latitude": 33.95333913,
    "Building Code": "0056"
  },
  {
    "Address": "312 S HERTY DR",
    "Name": "Sanford Hall",
    "Longitude": -83.37501321,
    "Latitude": 33.95368383,
    "Building Code": "0058"
  },
  {
    "Address": "255 BALDWIN ST",
    "Name": "Fine Arts Building",
    "Longitude": -83.37587671,
    "Latitude": 33.95250989,
    "Building Code": "0060"
  },
  {
    "Address": "265 BALDWIN ST",
    "Name": "Military Building Army ROTC",
    "Longitude": -83.37498095,
    "Latitude": 33.95259535,
    "Building Code": "0061"
  },
  {
    "Address": "120 HOOPER ST",
    "Name": "Journalism Building",
    "Longitude": -83.3739534,
    "Latitude": 33.95219116,
    "Building Code": "0062"
  },
  {
    "Address": "110 HOOPER STREET",
    "Name": "Psychology Building",
    "Longitude": -83.37290943,
    "Latitude": 33.95253227,
    "Building Code": "0064"
  },
  {
    "Address": "185 BALDWIN ST",
    "Name": "Instructional Plaza",
    "Longitude": -83.37339835,
    "Latitude": 33.9524087,
    "Building Code": "0066"
  },
  {
    "Address": "48 BAXTER ST",
    "Name": "Zell B. Miller Learning Center",
    "Longitude": -83.37577163,
    "Latitude": 33.95168412,
    "Building Code": "0081"
  },
  {
    "Address": "400 S HULL ST",
    "Name": "Hull Street Deck",
    "Longitude": -83.37871668,
    "Latitude": 33.95286379,
    "Building Code": "0082"
  },
  {
    "Address": "815 S LUMPKIN ST",
    "Name": "Geology Hydrothermal Lab",
    "Longitude": -83.37600032,
    "Latitude": 33.94939881,
    "Building Code": "0090"
  },
  {
    "Address": "1180 E BROAD ST",
    "Name": "Chicopee Main Building No.1",
    "Longitude": -83.36480076,
    "Latitude": 33.95934284,
    "Building Code": "0101"
  },
  {
    "Address": "456 E BROAD ST",
    "Name": "Business Services",
    "Longitude": -83.37319154,
    "Latitude": 33.95781976,
    "Building Code": "0110"
  },
  {
    "Address": "382 EAST BROAD ST",
    "Name": "Small Business Development Center",
    "Longitude": -83.37354229,
    "Latitude": 33.9577437,
    "Building Code": "0113"
  },
  {
    "Address": "101 N HERTY DR",
    "Name": "Holmes/Hunter Academic Building",
    "Longitude": -83.3754287,
    "Latitude": 33.95720729,
    "Building Code": "0120"
  },
  {
    "Address": "210 SPRING ST",
    "Name": "Delta Innovation Hub",
    "Longitude": -83.37347599,
    "Latitude": 33.95735514,
    "Building Code": "0121"
  },
  {
    "Address": "231 S JACKSON ST",
    "Name": "North Campus Deck",
    "Longitude": -83.37257438,
    "Latitude": 33.95615602,
    "Building Code": "0122"
  },
  {
    "Address": "199 FULTON ST",
    "Name": "Tanner Building",
    "Longitude": -83.37304386,
    "Latitude": 33.95689612,
    "Building Code": "0123"
  },
  {
    "Address": "215 S THOMAS ST",
    "Name": "Sculpture Canopy",
    "Longitude": -83.37162959,
    "Latitude": 33.95672405,
    "Building Code": "0124"
  },
  {
    "Address": "215 N HERTY DR",
    "Name": "Old College",
    "Longitude": -83.3745085,
    "Latitude": 33.95579243,
    "Building Code": "0130"
  },
  {
    "Address": "595 S LUMPKIN ST",
    "Name": "Joseph E. Brown Hall",
    "Longitude": -83.3760898,
    "Latitude": 33.95333843,
    "Building Code": "0250"
  },
  {
    "Address": "101 HOOPER ST",
    "Name": "Payne Hall",
    "Longitude": -83.37183369,
    "Latitude": 33.95169295,
    "Building Code": "0270"
  },
  {
    "Address": "103 HOOPER ST",
    "Name": "Milledge Hall",
    "Longitude": -83.37227365,
    "Latitude": 33.95158699,
    "Building Code": "0271"
  },
  {
    "Address": "105 HOOPER ST",
    "Name": "Reed Hall",
    "Longitude": -83.37266825,
    "Latitude": 33.95104086,
    "Building Code": "0280"
  },
  {
    "Address": "825 S LUMPKIN ST",
    "Name": "Clark Howell Hall",
    "Longitude": -83.37697569,
    "Latitude": 33.94951444,
    "Building Code": "0290"
  },
  {
    "Address": "215 S JACKSON ST",
    "Name": "Human Resources",
    "Longitude": -83.3735331,
    "Latitude": 33.95668984,
    "Building Code": "0620"
  },
  {
    "Address": "220 S JACKSON ST",
    "Name": "Administration Building",
    "Longitude": -83.37402336,
    "Latitude": 33.95625466,
    "Building Code": "0631"
  },
  {
    "Address": "230 S JACKSON ST",
    "Name": "Lustrat House",
    "Longitude": -83.37383344,
    "Latitude": 33.95576169,
    "Building Code": "0632"
  },
  {
    "Address": "210 N HERTY DR",
    "Name": "Gilbert Hall",
    "Longitude": -83.37606251,
    "Latitude": 33.95551156,
    "Building Code": "0640"
  },
  {
    "Address": "425 S LUMPKIN ST",
    "Name": "Founders Garden House",
    "Longitude": -83.376136,
    "Latitude": 33.95420986,
    "Building Code": "0650"
  },
  {
    "Address": "705 S LUMPKIN ST",
    "Name": "Tate Center Deck",
    "Longitude": -83.37652966,
    "Latitude": 33.95066713,
    "Building Code": "0669"
  },
  {
    "Address": "101 SANFORD DR",
    "Name": "Memorial Hall",
    "Longitude": -83.3736172,
    "Latitude": 33.9512641,
    "Building Code": "0670"
  },
  {
    "Address": "40 BAXTER ST",
    "Name": "University Bookstore",
    "Longitude": -83.37477185,
    "Latitude": 33.95143912,
    "Building Code": "0671"
  },
  {
    "Address": "45 BAXTER ST",
    "Name": "Tate Student Center",
    "Longitude": -83.37499668,
    "Latitude": 33.95043103,
    "Building Code": "0672"
  },
  {
    "Address": "280 E CAMPUS RD",
    "Name": "Sanford Stadium",
    "Longitude": -83.3724072,
    "Latitude": 33.94891382,
    "Building Code": "0678"
  },
  {
    "Address": "650 S LUMPKIN ST",
    "Name": "Ivester Hall",
    "Longitude": -83.37713637,
    "Latitude": 33.95189003,
    "Building Code": "0734"
  },
  {
    "Address": "630 S LUMPKIN ST",
    "Name": "Benson Hall",
    "Longitude": -83.37706272,
    "Latitude": 33.95234405,
    "Building Code": "0735"
  },
  {
    "Address": "620 S LUMPKIN ST",
    "Name": "Amos Hall",
    "Longitude": -83.37744174,
    "Latitude": 33.95228223,
    "Building Code": "0736"
  },
  {
    "Address": "475 S HULL ST",
    "Name": "Sanford & Barbara Orkin Hall",
    "Longitude": -83.37781323,
    "Latitude": 33.95190541,
    "Building Code": "0737"
  },
  {
    "Address": "415 S HULL ST",
    "Name": "Moore-Rooker Hall",
    "Longitude": -83.37781566,
    "Latitude": 33.95237135,
    "Building Code": "0738"
  },
  {
    "Address": "600 S LUMPKIN ST",
    "Name": "Correll Hall",
    "Longitude": -83.37743804,
    "Latitude": 33.95279983,
    "Building Code": "0739"
  },
  {
    "Address": "300 S HULL ST",
    "Name": "Richard B. Russell Jr. Special Collections",
    "Longitude": -83.37821532,
    "Latitude": 33.95405923,
    "Building Code": "0740"
  },
  {
    "Address": "185 S NEWTON ST",
    "Name": "District Energy Plant #1",
    "Longitude": -83.37918206,
    "Latitude": 33.95200125,
    "Building Code": "0741"
  },
  {
    "Address": "298 S HULL ST",
    "Name": "Wray-Nicholson House",
    "Longitude": -83.37827,
    "Latitude": 33.95494839,
    "Building Code": "0751"
  },
  {
    "Address": "240 S. HULL ST",
    "Name": "Wray-Nicholson Prop 240",
    "Longitude": -83.37821247,
    "Latitude": 33.95563211,
    "Building Code": "0752"
  },
  {
    "Address": "290 S HULL ST",
    "Name": "Wray-Nicholson Prop 290",
    "Longitude": -83.37810741,
    "Latitude": 33.95537823,
    "Building Code": "0753"
  },
  {
    "Address": "150 WADDELL ST",
    "Name": "Wray-Nicholson Prop 150",
    "Longitude": -83.37832721,
    "Latitude": 33.95461434,
    "Building Code": "0754"
  },
  {
    "Address": "154 WADDELL ST",
    "Name": "Wray-Nicholson Prop 154",
    "Longitude": -83.3786856,
    "Latitude": 33.95453697,
    "Building Code": "0755"
  },
  {
    "Address": "198 WADDELL ST",
    "Name": "Government Relations",
    "Longitude": -83.37893462,
    "Latitude": 33.95459655,
    "Building Code": "0756"
  },
  {
    "Address": "225 W BROAD ST",
    "Name": "Studio 225",
    "Longitude": -83.37875985,
    "Latitude": 33.95659795,
    "Building Code": "0766"
  },
  {
    "Address": "257 W BROAD ST",
    "Name": "Interior Design Studios",
    "Longitude": -83.37905397,
    "Latitude": 33.95652157,
    "Building Code": "0767"
  },
  {
    "Address": "287 W BROAD ST",
    "Name": "The Athenaeum",
    "Longitude": -83.37936642,
    "Latitude": 33.95648342,
    "Building Code": "0768"
  },
  {
    "Address": "120 CEDAR ST",
    "Name": "Cedar Street Building B",
    "Longitude": -83.37271187,
    "Latitude": 33.94796062,
    "Building Code": "1000"
  },
  {
    "Address": "136 CEDAR ST",
    "Name": "Cedar Street Building C",
    "Longitude": -83.37412108,
    "Latitude": 33.94849115,
    "Building Code": "1001"
  },
  {
    "Address": "210 FIELD ST",
    "Name": "Geography and Geology",
    "Longitude": -83.37539954,
    "Latitude": 33.9487058,
    "Building Code": "1002"
  },
  {
    "Address": "220 CEDAR ST",
    "Name": "Physics Building",
    "Longitude": -83.3761268,
    "Latitude": 33.94817231,
    "Building Code": "1003"
  },
  {
    "Address": "140 CEDAR ST",
    "Name": "Cedar Street Building D",
    "Longitude": -83.37482148,
    "Latitude": 33.94825059,
    "Building Code": "1004"
  },
  {
    "Address": "305 SANFORD DR",
    "Name": "Speirs Hall",
    "Longitude": -83.37526315,
    "Latitude": 33.9469264,
    "Building Code": "1010"
  },
  {
    "Address": "147 CEDAR ST",
    "Name": "Conner Hall",
    "Longitude": -83.37384438,
    "Latitude": 33.94750977,
    "Building Code": "1011"
  },
  {
    "Address": "145 CEDAR ST",
    "Name": "Lumpkin House",
    "Longitude": -83.37393486,
    "Latitude": 33.94780263,
    "Building Code": "1012"
  },
  {
    "Address": "110 CEDAR ST",
    "Name": "Cedar Street Building A",
    "Longitude": -83.37252542,
    "Latitude": 33.946807,
    "Building Code": "1013"
  },
  {
    "Address": "100 CEDAR ST",
    "Name": "Food Science Building",
    "Longitude": -83.37214982,
    "Latitude": 33.94606601,
    "Building Code": "1020"
  },
  {
    "Address": "115 D. W. BROOKS DR",
    "Name": "Barrow Hall",
    "Longitude": -83.37370058,
    "Latitude": 33.94650925,
    "Building Code": "1021"
  },
  {
    "Address": "137 CEDAR ST",
    "Name": "Food Processing Lab",
    "Longitude": -83.37344475,
    "Latitude": 33.94619918,
    "Building Code": "1022"
  },
  {
    "Address": "200 DW BROOKS DR",
    "Name": "Boyd Rsrch and Edu Ctr",
    "Longitude": -83.37481699,
    "Latitude": 33.94589811,
    "Building Code": "1023"
  },
  {
    "Address": "110 Cedar St",
    "Name": "Poultry Science",
    "Longitude": -83.3725588,
    "Latitude": 33.94680,
    "Building Code": "1025"
  },

  {
    "Address": "325 SANFORD DR",
    "Name": "Marine Science / Dance",
    "Longitude": -83.37577092,
    "Latitude": 33.94520752,
    "Building Code": "1030"
  },
  {
    "Address": "325 SANFORD DR",
    "Name": "Marine Science / Dance",
    "Longitude": -83.37577092,
    "Latitude": 33.94520752,
    "Building Code": "1030"
  },
  {
    "Address": "201 DW BROOKS DR",
    "Name": "Hardman Hall",
    "Longitude": -83.37415125,
    "Latitude": 33.94507902,
    "Building Code": "1031"
  },
  {
    "Address": "140 E GREEN ST",
    "Name": "Ecology",
    "Longitude": -83.37328111,
    "Latitude": 33.94434657,
    "Building Code": "1033"
  },
  {
    "Address": "130 CARLTON ST",
    "Name": "Science Learning Center",
    "Longitude": -83.37625283,
    "Latitude": 33.9427513,
    "Building Code": "1035"
  },
  {
    "Address": "240 W GREEN ST",
    "Name": "Pharmacy South",
    "Longitude": -83.37591404,
    "Latitude": 33.94343971,
    "Building Code": "1038"
  },
  {
    "Address": "190 E GREEN ST",
    "Name": "Forestry Resources 1",
    "Longitude": -83.37467331,
    "Latitude": 33.94408307,
    "Building Code": "1040"
  },
  {
    "Address": "250 W GREEN ST",
    "Name": "R. C. Wilson Pharmacy",
    "Longitude": -83.37542445,
    "Latitude": 33.94418311,
    "Building Code": "1041"
  },
  {
    "Address": "300 CARLTON ST",
    "Name": "Hoke Smith Annex",
    "Longitude": -83.37895387,
    "Latitude": 33.94389715,
    "Building Code": "1042"
  },
  {
    "Address": "1225 LUMPKIN ST",
    "Name": "Coop. Ext. Serv. - Hoke Smith",
    "Longitude": -83.37953338,
    "Latitude": 33.94433469,
    "Building Code": "1043"
  },
  {
    "Address": "170 EAST GREEN ST",
    "Name": "Forestry Resources 3",
    "Longitude": -83.37408149,
    "Latitude": 33.94394901,
    "Building Code": "1044"
  },
  {
    "Address": "160 EAST GREEN ST",
    "Name": "Forestry Resources 4",
    "Longitude": -83.37448656,
    "Latitude": 33.94365542,
    "Building Code": "1046"
  },
  {
    "Address": "150 E GREEN ST",
    "Name": "Environmental Health Sciences",
    "Longitude": -83.37480919,
    "Latitude": 33.94332125,
    "Building Code": "1050"
  },
  {
    "Address": "120 E GREEN ST",
    "Name": "Davison Life Sciences Complex",
    "Longitude": -83.37235379,
    "Latitude": 33.94320559,
    "Building Code": "1057"
  },
  {
    "Address": "110 EAST GREEN ST",
    "Name": "Life Sciences Fermentation Lab",
    "Longitude": -83.3718029,
    "Latitude": 33.9432408,
    "Building Code": "1058"
  },
  {
    "Address": "110 CARLTON ST",
    "Name": "Aderhold",
    "Longitude": -83.37296634,
    "Latitude": 33.94176381,
    "Building Code": "1060"
  },
  {
    "Address": "120 CARLTON ST",
    "Name": "Miller Plant Science",
    "Longitude": -83.37507242,
    "Latitude": 33.94238652,
    "Building Code": "1061"
  },
  {
    "Address": "115 VETERINARY LOOP RD",
    "Name": "Locomotive Diag. Center",
    "Longitude": -83.3732856,
    "Latitude": 33.94042846,
    "Building Code": "1064"
  },
  {
    "Address": "125 VETERINARY LOOP RD",
    "Name": "Pet Health Center",
    "Longitude": -83.37392751,
    "Latitude": 33.9405576,
    "Building Code": "1065"
  },
  {
    "Address": "135 VETERINARY LOOP RD",
    "Name": "Vet. Medicine 10",
    "Longitude": -83.37368872,
    "Latitude": 33.94023625,
    "Building Code": "1066"
  },
  {
    "Address": "145 VETERINARY LOOP RD",
    "Name": "Vet. Medicine 11",
    "Longitude": -83.37333523,
    "Latitude": 33.93989157,
    "Building Code": "1067"
  },
  {
    "Address": "501 DW BROOKS DR",
    "Name": "College of Veterinary Medicine 1",
    "Longitude": -83.37545718,
    "Latitude": 33.94006719,
    "Building Code": "1070"
  },
  {
    "Address": "130 VETERINARY LOOP RD",
    "Name": "Vet. Medicine 2",
    "Longitude": -83.374637,
    "Latitude": 33.94036943,
    "Building Code": "1072"
  },
  {
    "Address": "501 DW BROOKS DR",
    "Name": "Vet. Medicine 6",
    "Longitude": -83.37531252,
    "Latitude": 33.93963592,
    "Building Code": "1073"
  },
  {
    "Address": "111 CARLTON ST",
    "Name": "Animal Health Research Center",
    "Longitude": -83.37295263,
    "Latitude": 33.94091427,
    "Building Code": "1077"
  },
  {
    "Address": "120 VETERINARY LOOP RD",
    "Name": "Veterinary Diagnostic Lab",
    "Longitude": -83.37490425,
    "Latitude": 33.94060786,
    "Building Code": "1079"
  },
  {
    "Address": "589 DW BROOKS DR",
    "Name": "Wildlife Health",
    "Longitude": -83.37470486,
    "Latitude": 33.93949709,
    "Building Code": "1082"
  },
  {
    "Address": "150 VETERINARY LOOP RD",
    "Name": "Vet Med BioResources Facility",
    "Longitude": -83.37449174,
    "Latitude": 33.9399363,
    "Building Code": "1084"
  },
  {
    "Address": "597 DW BROOKS DR",
    "Name": "Driftmier Engineering Center",
    "Longitude": -83.37506535,
    "Latitude": 33.93883498,
    "Building Code": "1090"
  },
  {
    "Address": "597 DW BROOKS DR",
    "Name": "Driftmier Engineering Annex",
    "Longitude": -83.37392539,
    "Latitude": 33.93894126,
    "Building Code": "1094"
  },
  {
    "Address": "125 SMITH ST",
    "Name": "Carlton Street Deck",
    "Longitude": -83.37794931,
    "Latitude": 33.94121004,
    "Building Code": "1110"
  },
  {
    "Address": "500 D W BROOKS DR",
    "Name": "Paul D. Coverdell Center",
    "Longitude": -83.37675666,
    "Latitude": 33.94107153,
    "Building Code": "1111"
  },
  {
    "Address": "101 CEDAR ST",
    "Name": "Computing Services",
    "Longitude": -83.37185316,
    "Latitude": 33.94518817,
    "Building Code": "1130"
  },
  {
    "Address": "302 E CAMPUS RD",
    "Name": "STEM Research Building I",
    "Longitude": -83.37281786,
    "Latitude": 33.94492722,
    "Building Code": "1131"
  },
  {
    "Address": "312 E CAMPUS RD",
    "Name": "STEM Research Building II",
    "Longitude": -83.37281786,
    "Latitude": 33.94492722,
    "Building Code": "1132"
  },
  {
    "Address": "100 GREEN ST",
    "Name": "South Campus Deck",
    "Longitude": -83.37753203,
    "Latitude": 33.94554479,
    "Building Code": "1139"
  },
  {
    "Address": "180 E GREEN ST",
    "Name": "Forestry Resources 2",
    "Longitude": -83.37438817,
    "Latitude": 33.94401225,
    "Building Code": "1140"
  },
  {
    "Address": "305 CEDAR ST",
    "Name": "Rutherford Hall",
    "Longitude": -83.37667073,
    "Latitude": 33.94694628,
    "Building Code": "1215"
  },
  {
    "Address": "315 SANFORD DR",
    "Name": "Soule Hall",
    "Longitude": -83.3759875,
    "Latitude": 33.94620719,
    "Building Code": "1220"
  },
  {
    "Address": "310 SANFORD DR",
    "Name": "Mary Lyndon Hall",
    "Longitude": -83.37702431,
    "Latitude": 33.94599026,
    "Building Code": "1221"
  },
  {
    "Address": "1055 S. LUMPKIN ST",
    "Name": "Myers Hall",
    "Longitude": -83.37780384,
    "Latitude": 33.94667885,
    "Building Code": "1222"
  },
  {
    "Address": "403 SANFORD DR",
    "Name": "Family Science Center 1",
    "Longitude": -83.37664371,
    "Latitude": 33.94401826,
    "Building Code": "1246"
  },
  {
    "Address": "407 SANFORD DR",
    "Name": "Charles Schwab Financial Planning Center",
    "Longitude": -83.37694059,
    "Latitude": 33.94380836,
    "Building Code": "1247"
  },
  {
    "Address": "415 SANFORD DR",
    "Name": "Housing and Consumer Research Center",
    "Longitude": -83.37712012,
    "Latitude": 33.94401512,
    "Building Code": "1248"
  },
  {
    "Address": "405 SANFORD DR",
    "Name": "Family Science Center 2",
    "Longitude": -83.37682565,
    "Latitude": 33.94421114,
    "Building Code": "1249"
  },
  {
    "Address": "310 E CAMPUS RD",
    "Name": "Tucker Hall",
    "Longitude": -83.37113462,
    "Latitude": 33.9426488,
    "Building Code": "1250"
  },
  {
    "Address": "220 W GREEN ST",
    "Name": "Horticulture Greenhouse",
    "Longitude": -83.37602332,
    "Latitude": 33.94405284,
    "Building Code": "1340"
  },
  {
    "Address": "425 RIVER RD",
    "Name": "Rhodes Animal Science Center - A",
    "Longitude": -83.36906943,
    "Latitude": 33.93536298,
    "Building Code": "1501"
  },
  {
    "Address": "425 RIVER RD",
    "Name": "Rhodes Animal Science Center - C",
    "Longitude": -83.36845464,
    "Latitude": 33.936349,
    "Building Code": "1502"
  },
  {
    "Address": "425 RIVER RD",
    "Name": "Rhodes Animal Science Center - B",
    "Longitude": -83.36861235,
    "Latitude": 33.93582156,
    "Building Code": "1503"
  },
  {
    "Address": "335 RIVER RD",
    "Name": "East Village Deck",
    "Longitude": -83.36629955,
    "Latitude": 33.93841982,
    "Building Code": "1510"
  },
  {
    "Address": "80 CARLTON ST",
    "Name": "Joe Frank Harris Commons",
    "Longitude": -83.37082376,
    "Latitude": 33.93908655,
    "Building Code": "1511"
  },
  {
    "Address": "365 RIVER RD",
    "Name": "George D. Busbee Hall",
    "Longitude": -83.36810892,
    "Latitude": 33.93802864,
    "Building Code": "1512"
  },
  {
    "Address": "385 RIVER RD",
    "Name": "Rooker Hall",
    "Longitude": -83.36790387,
    "Latitude": 33.93709262,
    "Building Code": "1513"
  },
  {
    "Address": "375 RIVER RD",
    "Name": "Vandiver Hall",
    "Longitude": -83.36731193,
    "Latitude": 33.93752201,
    "Building Code": "1514"
  },
  {
    "Address": "355 RIVER RD",
    "Name": "McWhorter Hall",
    "Longitude": -83.36712829,
    "Latitude": 33.93820183,
    "Building Code": "1515"
  },
  {
    "Address": "395 RIVER RD",
    "Name": "Building 1516",
    "Longitude": -83.36709952,
    "Latitude": 33.93670381,
    "Building Code": "1516"
  },
  {
    "Address": "117 CEDAR STREET",
    "Name": "District Energy Plant #2",
    "Longitude": -83.37281786,
    "Latitude": 33.94492722,
    "Building Code": "1617"
  },
  {
    "Address": "210 DW BROOKS DR",
    "Name": "Shirley Mathis McBay Science Library",
    "Longitude": -83.37532078,
    "Latitude": 33.94600768,
    "Building Code": "1621"
  },
  {
    "Address": "203 DW BROOKS DR",
    "Name": "Ecology Centers",
    "Longitude": -83.37347897,
    "Latitude": 33.94501093,
    "Building Code": "1632"
  },
  {
    "Address": "205 RIVERBEND RD",
    "Name": "Vehicle Transporation & Maintenance",
    "Longitude": -83.36563043,
    "Latitude": 33.92935148,
    "Building Code": "1634"
  },
  {
    "Address": "2505 RIVERBEND RD",
    "Name": "Campus Transit Facility",
    "Longitude": -83.37141577,
    "Latitude": 33.92350502,
    "Building Code": "1637"
  },
  {
    "Address": "1197 S LUMPKIN ST",
    "Name": "Georgia Center for Cont Ed",
    "Longitude": -83.37776814,
    "Latitude": 33.94456509,
    "Building Code": "1640"
  },
  {
    "Address": "200 W GREEN ST",
    "Name": "Snelling Dining Hall",
    "Longitude": -83.37639234,
    "Latitude": 33.94472428,
    "Building Code": "1643"
  },
  {
    "Address": "202 CARLTON ST",
    "Name": "Child Development Laboratory",
    "Longitude": -83.37671381,
    "Latitude": 33.94354604,
    "Building Code": "1652"
  },
  {
    "Address": "100 SMITH ST",
    "Name": "Stegeman Coliseum",
    "Longitude": -83.3781464,
    "Latitude": 33.94278834,
    "Building Code": "1654"
  },
  {
    "Address": "1224 S LUMPKIN ST",
    "Name": "Cobb House",
    "Longitude": -83.37989517,
    "Latitude": 33.94559263,
    "Building Code": "1656"
  },
  {
    "Address": "1234 S LUMPKIN ST",
    "Name": "Treanor House",
    "Longitude": -83.38002637,
    "Latitude": 33.94533716,
    "Building Code": "1657"
  },
  {
    "Address": "518 DW BROOKS DR",
    "Name": "Tennis Hall of Fame",
    "Longitude": -83.37905188,
    "Latitude": 33.94070384,
    "Building Code": "1670"
  },
  {
    "Address": "1 SELIG CIR",
    "Name": "Butts-Mehre Heritage Hall",
    "Longitude": -83.38123115,
    "Latitude": 33.94213394,
    "Building Code": "1671"
  },
  {
    "Address": "1 SELIG CIR",
    "Name": "Butts-Mehre Heritage Hall",
    "Longitude": -83.38123115,
    "Latitude": 33.94213394,
    "Building Code": "1671"
  },
  {
    "Address": "390 E RUTHERFORD ST",
    "Name": "Rankin M. Smith, Sr, Student Ath Acad Ctr",
    "Longitude": -83.37884695,
    "Latitude": 33.94205417,
    "Building Code": "1673"
  },
  {
    "Address": "1240 SOUTH LUMPKIN ST",
    "Name": "J.W. Fanning Building",
    "Longitude": -83.38027185,
    "Latitude": 33.94481217,
    "Building Code": "1675"
  },
  {
    "Address": "514 DW BROOKS DR",
    "Name": "Women's Tennis Clubhouse",
    "Longitude": -83.37817108,
    "Latitude": 33.94047747,
    "Building Code": "1678"
  },
  {
    "Address": "520 DW BROOKS DR",
    "Name": "Men's Tennis Clubhouse",
    "Longitude": -83.3794257,
    "Latitude": 33.94051399,
    "Building Code": "1679"
  },
  {
    "Address": "501 DW BROOKS DR",
    "Name": "Vet. Medicine 5A",
    "Longitude": -83.37414736,
    "Latitude": 33.93960298,
    "Building Code": "1680"
  },
  {
    "Address": "501 DW BROOKS DR",
    "Name": "Vet. Medicine 5C",
    "Longitude": -83.37398683,
    "Latitude": 33.93956384,
    "Building Code": "1682"
  },
  {
    "Address": "501 DW BROOKS DR",
    "Name": "Vet. Medicine 5D",
    "Longitude": -83.37416147,
    "Latitude": 33.93969828,
    "Building Code": "1683"
  },
  {
    "Address": "75 PINECREST DR",
    "Name": "Foley Baseball Stadium",
    "Longitude": -83.38091475,
    "Latitude": 33.94102876,
    "Building Code": "1685"
  },
  {
    "Address": "90 SMITH ST",
    "Name": "Coliseum Training Facility",
    "Longitude": -83.37753031,
    "Latitude": 33.94219695,
    "Building Code": "1687"
  },
  {
    "Address": "330 RIVER RD",
    "Name": "Ramsey Center",
    "Longitude": -83.37135738,
    "Latitude": 33.93773731,
    "Building Code": "1690"
  },
  {
    "Address": "250 RIVER RD",
    "Name": "Hugh Hodgson School of Music",
    "Longitude": -83.36872883,
    "Latitude": 33.94122687,
    "Building Code": "1691"
  },
  {
    "Address": "230 RIVER RD",
    "Name": "Performing Arts",
    "Longitude": -83.36953741,
    "Latitude": 33.94197338,
    "Building Code": "1692"
  },
  {
    "Address": "90 CARLTON ST",
    "Name": "Georgia Museum of Art",
    "Longitude": -83.3701541,
    "Latitude": 33.94110757,
    "Building Code": "1693"
  },
  {
    "Address": "270 RIVER RD",
    "Name": "Lamar Dodd School of Art",
    "Longitude": -83.36917468,
    "Latitude": 33.94040489,
    "Building Code": "1694"
  },
  {
    "Address": "300 RIVER RD",
    "Name": "East Campus Deck",
    "Longitude": -83.36931709,
    "Latitude": 33.93812902,
    "Building Code": "1698"
  },
  {
    "Address": "220 RIVER RD",
    "Name": "PAC Deck",
    "Longitude": -83.37006157,
    "Latitude": 33.94220744,
    "Building Code": "1699"
  },
  {
    "Address": "55 CARLTON ST",
    "Name": "UGA Health Center",
    "Longitude": -83.37217,
    "Latitude": 33.93592618,
    "Building Code": "1701"
  },
  {
    "Address": "1985 NEW JIMMY DANIEL RD",
    "Name": "Administrative Services Annex",
    "Longitude": -83.48849603,
    "Latitude": 33.93780772,
    "Building Code": "2007"
  },
  {
    "Address": "529 BAXTER ST",
    "Name": "529 Baxter St",
    "Longitude": -83.38410481,
    "Latitude": 33.94965346,
    "Building Code": "2029"
  },
  {
    "Address": "4435 ATLANTA HWY",
    "Name": "Administrative Services Warehouse",
    "Longitude": -83.48875178,
    "Latitude": 33.9386808,
    "Building Code": "2037"
  },
  {
    "Address": "240A RIVERBEND RD",
    "Name": "Environmental Safety Building",
    "Longitude": -83.36735638,
    "Latitude": 33.93000781,
    "Building Code": "2118"
  },
  {
    "Address": "1088 S LUMPKIN ST",
    "Name": "Auxiliary Services",
    "Longitude": -83.37903279,
    "Latitude": 33.94574139,
    "Building Code": "2119"
  },
  {
    "Address": "240 RIVERBEND RD",
    "Name": "Central Food Storage",
    "Longitude": -83.36698557,
    "Latitude": 33.93035704,
    "Building Code": "2122"
  },
  {
    "Address": "110 RIVERBEND RD",
    "Name": "Riverbend Solvent Storage Bldg",
    "Longitude": -83.36607048,
    "Latitude": 33.93138297,
    "Building Code": "2124"
  },
  {
    "Address": "110 RIVERBEND RD",
    "Name": "Riverbend Research Lab North",
    "Longitude": -83.36559735,
    "Latitude": 33.93134458,
    "Building Code": "2125"
  },
  {
    "Address": "120 RIVERBEND RD",
    "Name": "Center for Applied Isotope Study",
    "Longitude": -83.36652238,
    "Latitude": 33.93105525,
    "Building Code": "2127"
  },
  {
    "Address": "190 RIVER RD",
    "Name": "Ceramics",
    "Longitude": -83.36971557,
    "Latitude": 33.9433648,
    "Building Code": "2131"
  },
  {
    "Address": "305 E CLOVERHURST AVE",
    "Name": "West Campus Deck",
    "Longitude": -83.38181182,
    "Latitude": 33.94880301,
    "Building Code": "2136"
  },
  {
    "Address": "390 S LUMPKIN ST",
    "Name": "Morris Hall",
    "Longitude": -83.37688362,
    "Latitude": 33.95388344,
    "Building Code": "2204"
  },
  {
    "Address": "205 BAXTER ST",
    "Name": "Lipscomb Hall",
    "Longitude": -83.37826974,
    "Latitude": 33.95094775,
    "Building Code": "2208"
  },
  {
    "Address": "215 BAXTER ST",
    "Name": "Mell Hall",
    "Longitude": -83.37871485,
    "Latitude": 33.9508429,
    "Building Code": "2209"
  },
  {
    "Address": "415 BAXTER ST",
    "Name": "Creswell Hall",
    "Longitude": -83.380032,
    "Latitude": 33.949987,
    "Building Code": "2211"
  },
  {
    "Address": "515 BAXTER ST",
    "Name": "Russell Hall",
    "Longitude": -83.38152096,
    "Latitude": 33.94993868,
    "Building Code": "2212"
  },
  {
    "Address": "615 BAXTER ST",
    "Name": "Brumby Hall",
    "Longitude": -83.38284979,
    "Latitude": 33.94966235,
    "Building Code": "2213"
  },
  {
    "Address": "810 S LUMPKIN ST",
    "Name": "Hill Hall",
    "Longitude": -83.37806928,
    "Latitude": 33.94943685,
    "Building Code": "2214"
  },
  {
    "Address": "880 S LUMPKIN ST",
    "Name": "Church Hall",
    "Longitude": -83.3782837,
    "Latitude": 33.94896705,
    "Building Code": "2215"
  },
  {
    "Address": "900 S LUMPKIN ST",
    "Name": "Boggs Hall",
    "Longitude": -83.37838061,
    "Latitude": 33.94859181,
    "Building Code": "2216"
  },
  {
    "Address": "150 UNIVERSITY CT",
    "Name": "Oglethorpe House",
    "Longitude": -83.37934399,
    "Latitude": 33.94768492,
    "Building Code": "2217"
  },
  {
    "Address": "1064 S. LUMPKIN ST",
    "Name": "Alpha Chi Omega Sorority",
    "Longitude": -83.37893276,
    "Latitude": 33.94642865,
    "Building Code": "2218"
  },
  {
    "Address": "1324 S LUMPKIN ST",
    "Name": "Office of Global Engagement",
    "Longitude": -83.38192222,
    "Latitude": 33.94401578,
    "Building Code": "2219"
  },
  {
    "Address": "1324 S LUMPKIN ST",
    "Name": "Office of Global Engagement",
    "Longitude": -83.38192222,
    "Latitude": 33.94401578,
    "Building Code": "2219"
  },
  {
    "Address": "525 BLOOMFIELD ST",
    "Name": "Sigma Delta Tau Sorority",
    "Longitude": -83.38394588,
    "Latitude": 33.94300145,
    "Building Code": "2220"
  },
  {
    "Address": "101 COLLEGE STATION RD",
    "Name": "University Village A",
    "Longitude": -83.37553028,
    "Latitude": 33.93614085,
    "Building Code": "2221"
  },
  {
    "Address": "103 COLLEGE STATION RD",
    "Name": "University Village B",
    "Longitude": -83.37556729,
    "Latitude": 33.93682773,
    "Building Code": "2222"
  },
  {
    "Address": "105 COLLEGE STATION RD",
    "Name": "University Village C",
    "Longitude": -83.37523202,
    "Latitude": 33.93573467,
    "Building Code": "2223"
  },
  {
    "Address": "107 COLLEGE STATION RD",
    "Name": "University Village D",
    "Longitude": -83.37480499,
    "Latitude": 33.93655084,
    "Building Code": "2224"
  },
  {
    "Address": "104 COLLEGE STATION RD",
    "Name": "University Village E",
    "Longitude": -83.37550219,
    "Latitude": 33.93431451,
    "Building Code": "2225"
  },
  {
    "Address": "102 COLLEGE STATION RD",
    "Name": "University Village F",
    "Longitude": -83.37517354,
    "Latitude": 33.93496038,
    "Building Code": "2226"
  },
  {
    "Address": "106 COLLEGE STATION RD",
    "Name": "University Village G",
    "Longitude": -83.37532635,
    "Latitude": 33.93390371,
    "Building Code": "2227"
  },
  {
    "Address": "108 COLLEGE STATION RD",
    "Name": "University Village H",
    "Longitude": -83.37431563,
    "Latitude": 33.93472779,
    "Building Code": "2228"
  },
  {
    "Address": "109 COLLEGE STATION RD",
    "Name": "University Village J",
    "Longitude": -83.37400265,
    "Latitude": 33.9359194,
    "Building Code": "2229"
  },
  {
    "Address": "111 COLLEGE STATION RD",
    "Name": "University Village K",
    "Longitude": -83.3738485,
    "Latitude": 33.93671241,
    "Building Code": "2230"
  },
  {
    "Address": "113 COLLEGE STATION RD",
    "Name": "University Village L",
    "Longitude": -83.37393968,
    "Latitude": 33.93720621,
    "Building Code": "2231"
  },
  {
    "Address": "170 RIVER RD",
    "Name": "Alpha Epsilon Pi",
    "Longitude": -83.36987668,
    "Latitude": 33.94405737,
    "Building Code": "2232"
  },
  {
    "Address": "160 RIVER RD",
    "Name": "Kappa Sigma",
    "Longitude": -83.37001684,
    "Latitude": 33.94523282,
    "Building Code": "2233"
  },
  {
    "Address": "710 E CAMPUS RD",
    "Name": "University Village Community Office",
    "Longitude": -83.37772177,
    "Latitude": 33.93168162,
    "Building Code": "2238"
  },
  {
    "Address": "100 ROGERS RD",
    "Name": "Rogers Road Apts M",
    "Longitude": -83.37746652,
    "Latitude": 33.92988459,
    "Building Code": "2240"
  },
  {
    "Address": "110 ROGERS RD",
    "Name": "Rogers Road Apts N",
    "Longitude": -83.37710227,
    "Latitude": 33.92898781,
    "Building Code": "2241"
  },
  {
    "Address": "200 ROGERS RD",
    "Name": "Rogers Road Apts P",
    "Longitude": -83.37750047,
    "Latitude": 33.92828392,
    "Building Code": "2242"
  },
  {
    "Address": "210 ROGERS RD",
    "Name": "Rogers Road Apts Q",
    "Longitude": -83.37714086,
    "Latitude": 33.92725271,
    "Building Code": "2243"
  },
  {
    "Address": "300 ROGERS RD",
    "Name": "Rogers Road Apts R",
    "Longitude": -83.37678354,
    "Latitude": 33.92621945,
    "Building Code": "2244"
  },
  {
    "Address": "310 ROGERS RD",
    "Name": "Rogers Road Apts S",
    "Longitude": -83.37642777,
    "Latitude": 33.92519143,
    "Building Code": "2245"
  },
  {
    "Address": "195 BURNETT ST",
    "Name": "Alpha Psi Vet. Frat.",
    "Longitude": -83.37962231,
    "Latitude": 33.93982965,
    "Building Code": "2255"
  },
  {
    "Address": "205 BURNETT ST",
    "Name": "Omega Tau Sigma Frat.",
    "Longitude": -83.37853883,
    "Latitude": 33.93978223,
    "Building Code": "2256"
  },
  {
    "Address": "160 UNIVERSITY CT",
    "Name": "Oglethorpe Dining Commons",
    "Longitude": -83.37944509,
    "Latitude": 33.94709889,
    "Building Code": "2257"
  },
  {
    "Address": "1683 MILLEDGE AVE EXT",
    "Name": "Brandon Oaks T",
    "Longitude": -83.379352,
    "Latitude": 33.93012934,
    "Building Code": "2260"
  },
  {
    "Address": "1683 MILLEDGE AVE EXT",
    "Name": "Brandon Oaks U",
    "Longitude": -83.3788521,
    "Latitude": 33.93010419,
    "Building Code": "2261"
  },
  {
    "Address": "1683 MILLEDGE AVE EXT",
    "Name": "Brandon Oaks V",
    "Longitude": -83.37894787,
    "Latitude": 33.92972837,
    "Building Code": "2262"
  },
  {
    "Address": "315 BAXTER ST",
    "Name": "Black-Diallo-Miller Hall",
    "Longitude": -83.37871485,
    "Latitude": 33.9508429,
    "Building Code": "2264"
  },
  {
    "Address": "790 S LUMPKIN ST",
    "Name": "Bolton Dining Commons",
    "Longitude": -83.37750237,
    "Latitude": 33.95102131,
    "Building Code": "2265"
  },
  {
    "Address": "115 GREEK PARK CIR",
    "Name": "Sigma Nu",
    "Longitude": -83.37030928,
    "Latitude": 33.94651323,
    "Building Code": "2291"
  },
  {
    "Address": "125 GREEK PARK CIR",
    "Name": "Tau Epsilon Phi",
    "Longitude": -83.36985264,
    "Latitude": 33.94625657,
    "Building Code": "2292"
  },
  {
    "Address": "145 GREEK PARK CIR",
    "Name": "Pi Kappa Alpha",
    "Longitude": -83.36977671,
    "Latitude": 33.94581171,
    "Building Code": "2294"
  },
  {
    "Address": "2555 RIVERBEND RD",
    "Name": "Vet. Medicine  Shop",
    "Longitude": -83.37158861,
    "Latitude": 33.9221868,
    "Building Code": "2368"
  },
  {
    "Address": "2555 RIVERBEND RD",
    "Name": "Vet. Medicine  Storage",
    "Longitude": -83.37148194,
    "Latitude": 33.92191222,
    "Building Code": "2369"
  },
  {
    "Address": "2555 RIVERBEND RD",
    "Name": "Vet. Medicine Block Building",
    "Longitude": -83.37145608,
    "Latitude": 33.92171242,
    "Building Code": "2370"
  },
  {
    "Address": "2555 RIVERBEND RD",
    "Name": "Vet. Medicine  Barn",
    "Longitude": -83.37121064,
    "Latitude": 33.92167672,
    "Building Code": "2371"
  },
  {
    "Address": "2555 RIVERBEND RD",
    "Name": "Vet. Medicine Fish Barn",
    "Longitude": -83.37194882,
    "Latitude": 33.92198589,
    "Building Code": "2383"
  },
  {
    "Address": "325 RIVERBEND RD",
    "Name": "Center for Molecular Medicine",
    "Longitude": -83.36717665,
    "Latitude": 33.92627253,
    "Building Code": "2395"
  },
  {
    "Address": "107 RIVERBEND RD",
    "Name": "Agronomy Soil Building",
    "Longitude": -83.36350825,
    "Latitude": 33.93099538,
    "Building Code": "2408"
  },
  {
    "Address": "109 RIVERBEND RD",
    "Name": "Headhouse Horticulture",
    "Longitude": -83.36390321,
    "Latitude": 33.93094186,
    "Building Code": "2410"
  },
  {
    "Address": "107 RIVERBEND RD",
    "Name": "Headhouse Plants Agronomy",
    "Longitude": -83.36319617,
    "Latitude": 33.93104109,
    "Building Code": "2411"
  },
  {
    "Address": "105 RIVERBEND RD",
    "Name": "Soil Storage Building",
    "Longitude": -83.36213822,
    "Latitude": 33.93092342,
    "Building Code": "2413"
  },
  {
    "Address": "115 RIVERBEND RD",
    "Name": "Lath Greenhouse 3 Botany",
    "Longitude": -83.363032,
    "Latitude": 33.92910221,
    "Building Code": "2414"
  },
  {
    "Address": "220 RIVERBEND RD",
    "Name": "Riverbend Research Lab South",
    "Longitude": -83.36602933,
    "Latitude": 33.93041916,
    "Building Code": "2418"
  },
  {
    "Address": "315 RIVERBEND RD",
    "Name": "CCRC",
    "Longitude": -83.36706869,
    "Latitude": 33.92728463,
    "Building Code": "2419"
  },
  {
    "Address": "103 RIVERBEND RD",
    "Name": "Horticulture Greenhouse 1",
    "Longitude": -83.36430215,
    "Latitude": 33.9307923,
    "Building Code": "2423"
  },
  {
    "Address": "RIVERBEND RD",
    "Name": "Entomology Greenhouse/Headhouse",
    "Longitude": -83.36252506,
    "Latitude": 33.93043288,
    "Building Code": "2425"
  },
  {
    "Address": "107 RIVERBEND RD",
    "Name": "Agronomy Seed Lab",
    "Longitude": -83.36303801,
    "Latitude": 33.93022952,
    "Building Code": "2426"
  },
  {
    "Address": "104 RIVERBEND RD",
    "Name": "Soil Chemical &  Equipment Bldg",
    "Longitude": -83.36219539,
    "Latitude": 33.93037693,
    "Building Code": "2437"
  },
  {
    "Address": "111 RIVERBEND RD",
    "Name": "CAGTECH",
    "Longitude": -83.3620174,
    "Latitude": 33.93161987,
    "Building Code": "2438"
  },
  {
    "Address": "111 LAKE HERRICK DR",
    "Name": "Lake Herrick Pavilion",
    "Longitude": -83.37182399,
    "Latitude": 33.93177601,
    "Building Code": "2440"
  },
  {
    "Address": "215 S. THOMAS ST",
    "Name": "Thomas Street South",
    "Longitude": -83.37219841,
    "Latitude": 33.95680759,
    "Building Code": "2600"
  },
  {
    "Address": "215 S. THOMAS ST",
    "Name": "Thomas Street Art Studio",
    "Longitude": -83.37196411,
    "Latitude": 33.95708672,
    "Building Code": "2606"
  },
  {
    "Address": "516 DW BROOKS DR",
    "Name": "Henry Feild Tennis Stadium",
    "Longitude": -83.37909859,
    "Latitude": 33.94024158,
    "Building Code": "2622"
  },
  {
    "Address": "512 DW BROOKS DR",
    "Name": "Lindsey Hopkins Indoor Tennis Stadium",
    "Longitude": -83.37817108,
    "Latitude": 33.94047747,
    "Building Code": "2623"
  },
  {
    "Address": "1242 1/2 S LUMPKIN ST",
    "Name": "Office of Service-Learning",
    "Longitude": -83.38105208,
    "Latitude": 33.94537878,
    "Building Code": "2627"
  },
  {
    "Address": "110 LAKE HERRICK DR",
    "Name": "Intramural Fields Restrooms",
    "Longitude": -83.37287022,
    "Latitude": 33.93336527,
    "Building Code": "2632"
  },
  {
    "Address": "110 LAKE HERRICK DR",
    "Name": "Intramural Field Equipment Shed",
    "Longitude": -83.37271434,
    "Latitude": 33.93368091,
    "Building Code": "2634"
  },
  {
    "Address": "1260 S LUMPKIN ST",
    "Name": "1260 S. Lumpkin St.",
    "Longitude": -83.38110381,
    "Latitude": 33.94429289,
    "Building Code": "2635"
  },
  {
    "Address": "1280 S LUMPKIN ST",
    "Name": "UGAREF",
    "Longitude": -83.38126354,
    "Latitude": 33.94422205,
    "Building Code": "2636"
  },
  {
    "Address": "215 S. THOMAS ST",
    "Name": "Jewelry & Metalwork Art Studios",
    "Longitude": -83.37155863,
    "Latitude": 33.95702129,
    "Building Code": "2680"
  },
  {
    "Address": "315 S THOMAS ST",
    "Name": "Learning & Development Center",
    "Longitude": -83.37155828,
    "Latitude": 33.9553702,
    "Building Code": "2685"
  },
  {
    "Address": "215 THOMAS ST",
    "Name": "Thomas Street Sculpture",
    "Longitude": -83.37193076,
    "Latitude": 33.95683536,
    "Building Code": "2691"
  },
  {
    "Address": "405 COLLEGE STATION RD",
    "Name": "Four Towers",
    "Longitude": -83.37023156,
    "Latitude": 33.93598942,
    "Building Code": "2835"
  },
  {
    "Address": "160 LAKE HERRICK DR",
    "Name": "Intramural Tennis Pavilion",
    "Longitude": -83.37566658,
    "Latitude": 33.93059441,
    "Building Code": "2970"
  },
  {
    "Address": "110 LAKE HERRICK DR",
    "Name": "Intramural Fields Deck",
    "Longitude": -83.37234771,
    "Latitude": 33.93251042,
    "Building Code": "2972"
  },
  {
    "Address": "135 VETERINARY LOOP RD",
    "Name": "Vet. Medicine 12",
    "Longitude": -83.37368872,
    "Latitude": 33.94023625,
    "Building Code": "1068"
  },
  {
    "Address": "2360 RAINWATER RD",
    "Name": "Physical Plant Utility",
    "Longitude": -83.53082898,
    "Latitude": 31.47466884,
    "Building Code": "1641"
  },
  {
    "Address": "2360 RAINWATER RD",
    "Name": "Physical Plant Grounds",
    "Longitude": -83.53082898,
    "Latitude": 31.47466884,
    "Building Code": "1642"
  },
  {
    "Address": "HENRY FEILD TENNIS CTS",
    "Name": "Baseball Maintenance & Storage",
    "Longitude": -83.37806956,
    "Latitude": 33.9399155,
    "Building Code": "1686"
  },
  {
    "Address": "130 GREEK PARK CIR",
    "Name": "Phi Delta Theta",
    "Longitude": -83.37050914,
    "Latitude": 33.94601642,
    "Building Code": "2296"
  },
  {
    "Address": "135 VETERINARY LOOP RD",
    "Name": "Vet. Medicine Pole Barn",
    "Longitude": -83.37368872,
    "Latitude": 33.94023625,
    "Building Code": "2352"
  },
  {
    "Address": "107 RIVERBEND RD",
    "Name": "Soil Building 2",
    "Longitude": -83.36350825,
    "Latitude": 33.93099538,
    "Building Code": "2409"
  },
  {
    "Address": "PHOENIX RD",
    "Name": "Rhizotron Building",
    "Longitude": -83.35830422,
    "Latitude": 33.89462172,
    "Building Code": "2417"
  },
  {
    "Address": "802 S LUMPKIN ST",
    "Name": "Legion Pool",
    "Longitude": -83.37856916,
    "Latitude": 33.94981062,
    "Building Code": "2604"
  },
  {
    "Address": "300 S HULL ST",
    "Name": "Learning Ally",
    "Longitude": -83.37821532,
    "Latitude": 33.95405923,
    "Building Code": "2614"
  }
]